{
  "source": "Wizards Store and Event Locator storesByLocation GraphQL query",
  "sourceUrl": "https://locator.wizards.com/",
  "importedAt": "2026-05-30T19:25:51.677Z",
  "state": "MA",
  "stores": [
    {
      "id": "wpn-9078",
      "wpnId": "9078",
      "name": "AAA Games Cards and More",
      "address": "2460 Boston Rd #4, Wilbraham, MA, 01095, United States",
      "phone": "1413-896-1500",
      "website": "https://www.tcgmasterusa.com/",
      "isPremium": false,
      "latitude": 42.14898,
      "longitude": -72.4453,
      "source": "Wizards Store and Event Locator"
    },
    {
      "id": "wpn-6244",
      "wpnId": "6244",
      "name": "AJ's Gaming",
      "address": "196 East Street, Chicopee, MA, 01020, United States",
      "phone": "1413-331-2335",
      "website": "https://www.facebook.com/ajs.gaming.92/",
      "isPremium": false,
      "latitude": 42.15421,
      "longitude": -72.57475,
      "source": "Wizards Store and Event Locator"
    },
    {
      "id": "wpn-9538",
      "wpnId": "9538",
      "name": "Alpha Omega Hobby",
      "address": "1515 Hancock Street, Quincy, MA, 02169, United States",
      "phone": "1(617) 328-1640",
      "website": "https://www.alphaomegahobby.com/",
      "isPremium": false,
      "latitude": 42.24763,
      "longitude": -71.00177,
      "source": "Wizards Store and Event Locator"
    },
    {
      "id": "wpn-17679",
      "wpnId": "17679",
      "name": "Away Games",
      "address": "407 Cabot St, Beverly, MA, 01915, United States",
      "phone": "1978-969-2145",
      "website": "http://magic.wizards.com",
      "isPremium": false,
      "latitude": 42.5592708,
      "longitude": -70.88162489999999,
      "source": "Wizards Store and Event Locator"
    },
    {
      "id": "wpn-9708",
      "wpnId": "9708",
      "name": "Awesome Gaming and Collectibles",
      "address": "1580 Pleasant Street, Fall River, MA, 02723, United States",
      "phone": "1774-240-9980",
      "website": "http://magic.wizards.com",
      "isPremium": false,
      "latitude": 41.68896,
      "longitude": -71.13207,
      "source": "Wizards Store and Event Locator"
    },
    {
      "id": "wpn-17342",
      "wpnId": "17342",
      "name": "Battleground Games & Hobbies - Framingham",
      "address": "60 Worcester Rd, Framingham, MA, 01701, US",
      "phone": "1508-202-9178",
      "website": "http://www.battlegroundgames.com",
      "isPremium": false,
      "latitude": 42.2980054,
      "longitude": -71.3954988,
      "source": "Wizards Store and Event Locator"
    },
    {
      "id": "wpn-10280",
      "wpnId": "10280",
      "name": "Battleground Games and Hobbies - Abington",
      "address": "1423 Bedford St, Abington, MA, 02351, United States",
      "phone": "1781-261-9669",
      "website": "https://www.battlegroundgames.com/",
      "isPremium": false,
      "latitude": 42.14091,
      "longitude": -70.95214,
      "source": "Wizards Store and Event Locator"
    },
    {
      "id": "wpn-10455",
      "wpnId": "10455",
      "name": "Battleground Games and Hobbies - Norton",
      "address": "175 Mansfield Ave Unit 12 Norton, MA 02766-1333 United States",
      "phone": "508-316-1195",
      "website": "http://www.battlegroundgames.com",
      "isPremium": false,
      "latitude": 41.9822,
      "longitude": -71.2105,
      "source": "Wizards Store and Event Locator"
    },
    {
      "id": "wpn-10651",
      "wpnId": "10651",
      "name": "Battleground Games and Hobbies - Saugus",
      "address": "910 Broadway Unit D Saugus, MA 01906 United States",
      "phone": "781-558-2916",
      "website": "www.battlegroundgames.com",
      "isPremium": false,
      "latitude": 42.46934,
      "longitude": -71.02547,
      "source": "Wizards Store and Event Locator"
    },
    {
      "id": "wpn-8879",
      "wpnId": "8879",
      "name": "Book and Board Comics and Gaming",
      "address": "626 Main St. Winchester, MA 01890-1903 United States",
      "phone": "781-570-2653",
      "website": null,
      "isPremium": false,
      "latitude": 42.45399,
      "longitude": -71.13782,
      "source": "Wizards Store and Event Locator"
    },
    {
      "id": "wpn-19356",
      "wpnId": "19356",
      "name": "Card Safari",
      "address": "121 Sconticut Neck Rd, Fairhaven, MA, 02719, United States",
      "phone": "1774-712-4688",
      "website": "http://magic.wizards.com",
      "isPremium": false,
      "latitude": 41.6339007,
      "longitude": -70.8764924,
      "source": "Wizards Store and Event Locator"
    },
    {
      "id": "wpn-20502",
      "wpnId": "20502",
      "name": "Chaotic Goods",
      "address": "45 Main St, Leominster, MA, 01453, United States",
      "phone": "1-978-401-2118",
      "website": "http://www.chaotic-goods.com",
      "isPremium": false,
      "latitude": 42.5272848,
      "longitude": -71.75896469999999,
      "source": "Wizards Store and Event Locator"
    },
    {
      "id": "wpn-9714",
      "wpnId": "9714",
      "name": "Comicazi",
      "address": "407 Highland Ave, Somerville, MA, 02144, United States",
      "phone": "1617-666-2664",
      "website": "http://comicazi.com/",
      "isPremium": false,
      "latitude": 42.39624,
      "longitude": -71.12111,
      "source": "Wizards Store and Event Locator"
    },
    {
      "id": "wpn-14554",
      "wpnId": "14554",
      "name": "Community Cards",
      "address": "9 N Main St, Attleboro, MA, 02703-2215, United States",
      "phone": "1857-381-3463",
      "website": "https://locator.wizards.com/",
      "isPremium": false,
      "latitude": 41.94494,
      "longitude": -71.28424,
      "source": "Wizards Store and Event Locator"
    },
    {
      "id": "wpn-9364",
      "wpnId": "9364",
      "name": "Counterplay Comics",
      "address": "279 Cambridge St. STE 9 Burlington, MA 01803 United States",
      "phone": "(781) 933-1060",
      "website": null,
      "isPremium": false,
      "latitude": 42.51491,
      "longitude": -71.2066,
      "source": "Wizards Store and Event Locator"
    },
    {
      "id": "wpn-13563",
      "wpnId": "13563",
      "name": "Creatorpult Games",
      "address": "38 Emerson St, Haverhill, MA, 01830, US",
      "phone": "1508-293-1122",
      "website": "https://www.creatorpultgames.com",
      "isPremium": false,
      "latitude": 42.77485290000001,
      "longitude": -71.0824068,
      "source": "Wizards Store and Event Locator"
    },
    {
      "id": "wpn-7226",
      "wpnId": "7226",
      "name": "Dark Water Games",
      "address": "681 Falmouth Rd STE A17, Mashpee, MA, 02649, United States",
      "phone": "1(774) 361-6775",
      "website": "https://www.Darkwatergames.com",
      "isPremium": false,
      "latitude": 41.61056,
      "longitude": -70.49162,
      "source": "Wizards Store and Event Locator"
    },
    {
      "id": "wpn-16390",
      "wpnId": "16390",
      "name": "Divine Gamez",
      "address": "1335 Main St, Walpole, MA, 02081, United States",
      "phone": "1508-838-7381",
      "website": "https://divinegamez.com/",
      "isPremium": false,
      "latitude": 42.13459969999999,
      "longitude": -71.2615215,
      "source": "Wizards Store and Event Locator"
    },
    {
      "id": "wpn-9790",
      "wpnId": "9790",
      "name": "ELD's Time Vault Games",
      "address": "15 North Main Street Suite B-4 Bellingham, MA 02019 United States",
      "phone": "(508) 966-8245",
      "website": "https://eldstimevaultgames.com/",
      "isPremium": false,
      "latitude": 42.08963,
      "longitude": -71.47468,
      "source": "Wizards Store and Event Locator"
    },
    {
      "id": "wpn-10712",
      "wpnId": "10712",
      "name": "Excelsior Comics and Games",
      "address": "6-10 Waltham St, Maynard, MA, 01754, United States",
      "phone": "1508-808-9124",
      "website": "https://www.excelsiorcomicsandgames.com/",
      "isPremium": false,
      "latitude": 42.43247,
      "longitude": -71.44874,
      "source": "Wizards Store and Event Locator"
    },
    {
      "id": "wpn-16631",
      "wpnId": "16631",
      "name": "Exploding6 Game Supply",
      "address": "151 State Rd, Westport, MA, 02790, United States",
      "phone": "17744614085",
      "website": "http://www.exploding6.com",
      "isPremium": false,
      "latitude": 41.6757814,
      "longitude": -71.1098952,
      "source": "Wizards Store and Event Locator"
    },
    {
      "id": "wpn-20369",
      "wpnId": "20369",
      "name": "Five Star Games - Sturbridge",
      "address": "29 Brookfield Rd, Sturbridge, MA, 01518, US",
      "phone": "1413-635-5995",
      "website": "https://www.facebook.com/FiveStarGamesSturbridge",
      "isPremium": false,
      "latitude": 42.1171476,
      "longitude": -72.117988,
      "source": "Wizards Store and Event Locator"
    },
    {
      "id": "wpn-14082",
      "wpnId": "14082",
      "name": "Five Star Games - West Springfield",
      "address": "233 Memorial Ave, West Springfield, MA, 01089, United States",
      "phone": "1413-750-8717",
      "website": "http://www.fivestargamesusa.com/",
      "isPremium": false,
      "latitude": 42.09545,
      "longitude": -72.60017,
      "source": "Wizards Store and Event Locator"
    },
    {
      "id": "wpn-16451",
      "wpnId": "16451",
      "name": "Friar Tuck's Comics & Collectibles",
      "address": "310 Harvard St, Brookline, MA, 02446, US",
      "phone": "1617-505-5559",
      "website": "http://www.friartuckscomics.com",
      "isPremium": false,
      "latitude": 42.3430421,
      "longitude": -71.1233015,
      "source": "Wizards Store and Event Locator"
    },
    {
      "id": "wpn-20212",
      "wpnId": "20212",
      "name": "Gadget Depot Collectibles",
      "address": "241 Main St, Holyoke, MA, 01040, United States",
      "phone": "1413-533-7352",
      "website": "https://fb.com/gadgetdepot413",
      "isPremium": false,
      "latitude": 42.2016496,
      "longitude": -72.605526,
      "source": "Wizards Store and Event Locator"
    },
    {
      "id": "wpn-8444",
      "wpnId": "8444",
      "name": "Game King",
      "address": "120 S Main St, Fall River, MA, 02721-5325, United States",
      "phone": "1508-676-0635",
      "website": "http://wpn.wizards.com",
      "isPremium": false,
      "latitude": 41.70034,
      "longitude": -71.15618,
      "source": "Wizards Store and Event Locator"
    },
    {
      "id": "wpn-7526",
      "wpnId": "7526",
      "name": "Game Underground",
      "address": "349 Moody Street, Waltham, MA, 02453, United States",
      "phone": "1508-283-1503",
      "website": "https://www.game-underground.com/",
      "isPremium": false,
      "latitude": 42.37028,
      "longitude": -71.23746,
      "source": "Wizards Store and Event Locator"
    },
    {
      "id": "wpn-20839",
      "wpnId": "20839",
      "name": "GameStop - 3132 - Chicopee Marketplace",
      "address": "649 Memorial Dr, Chicopee, MA, 01020, US",
      "phone": "1(413) 593-3596",
      "website": "https://www.gamestop.com/",
      "isPremium": false,
      "latitude": 42.1755261,
      "longitude": -72.5758211,
      "source": "Wizards Store and Event Locator"
    },
    {
      "id": "wpn-20875",
      "wpnId": "20875",
      "name": "GameStop - 3725 - Timpany Plaza",
      "address": "376 Timpany Blvd, Gardner, MA, 01440, US",
      "phone": "1(978) 630-0282",
      "website": "https://www.gamestop.com/",
      "isPremium": false,
      "latitude": 42.5571608,
      "longitude": -71.99244279999999,
      "source": "Wizards Store and Event Locator"
    },
    {
      "id": "wpn-18462",
      "wpnId": "18462",
      "name": "GameStop - 435 - Pittsfield",
      "address": "5 Cheshire Rd, Pittsfield, MA, 01201, United States",
      "phone": "1413-499-0081",
      "website": "https://www.gamestop.com/",
      "isPremium": false,
      "latitude": 42.469695,
      "longitude": -73.2056549,
      "source": "Wizards Store and Event Locator"
    },
    {
      "id": "wpn-20014",
      "wpnId": "20014",
      "name": "GameStop - 639 - Braintree",
      "address": "117 Pearl St, Braintree, MA, 02184, US",
      "phone": "1(781) 849-1711",
      "website": "https://www.gamestop.com/",
      "isPremium": false,
      "latitude": 42.2016794,
      "longitude": -71.0018595,
      "source": "Wizards Store and Event Locator"
    },
    {
      "id": "wpn-21073",
      "wpnId": "21073",
      "name": "GameStop - 6735 - Fall River Shopping Center",
      "address": "153 Mariano Bishop Blvd, Fall River, MA, 02721, US",
      "phone": "1(508) 674-1116",
      "website": "https://www.gamestop.com/",
      "isPremium": false,
      "latitude": 41.6760511,
      "longitude": -71.1651124,
      "source": "Wizards Store and Event Locator"
    },
    {
      "id": "wpn-20730",
      "wpnId": "20730",
      "name": "GameStop - 730 - Fashion Crossing",
      "address": "1250 S Washington St, North Attleborough, MA, 02760, US",
      "phone": "1(508) 695-3484",
      "website": "https://www.gamestop.com/",
      "isPremium": false,
      "latitude": 41.9394248,
      "longitude": -71.34782179999999,
      "source": "Wizards Store and Event Locator"
    },
    {
      "id": "wpn-21108",
      "wpnId": "21108",
      "name": "GameStop - 7786 - Meadow Brook Center Boston",
      "address": "211 Plain St, Lowell, MA, 01852, US",
      "phone": "1(978) 453-9349",
      "website": "https://www.gamestop.com/",
      "isPremium": false,
      "latitude": 42.6214258,
      "longitude": -71.31832969999999,
      "source": "Wizards Store and Event Locator"
    },
    {
      "id": "wpn-9020",
      "wpnId": "9020",
      "name": "Gaming Etc Tournament Center",
      "address": "531 Main St, Acton, MA, 01720, United States",
      "phone": "+1978-263-5793",
      "website": "http://magic.wizards.com",
      "isPremium": true,
      "latitude": 42.48993,
      "longitude": -71.42783,
      "source": "Wizards Store and Event Locator"
    },
    {
      "id": "wpn-11857",
      "wpnId": "11857",
      "name": "Great Stories",
      "address": "1167 Providence RD STE 4 Whitinsville, MA 01588 United States",
      "phone": "508 779 7776",
      "website": "https://www.facebook.com/groups/MTGatGreatStories/",
      "isPremium": false,
      "latitude": 42.07647,
      "longitude": -71.62921,
      "source": "Wizards Store and Event Locator"
    },
    {
      "id": "wpn-6672",
      "wpnId": "6672",
      "name": "Greenfield Games",
      "address": "238 Main St Greenfield, MA 01301-3243 United States",
      "phone": "413-774-5225",
      "website": "http://greenfieldgames.com",
      "isPremium": false,
      "latitude": 42.58795,
      "longitude": -72.60221,
      "source": "Wizards Store and Event Locator"
    },
    {
      "id": "wpn-19464",
      "wpnId": "19464",
      "name": "Hits and Holos",
      "address": "276 Orchard St, Watertown, MA, 02472, United States",
      "phone": "18577607108",
      "website": "https://hitsandholos.com/",
      "isPremium": false,
      "latitude": 42.377913,
      "longitude": -71.188874,
      "source": "Wizards Store and Event Locator"
    },
    {
      "id": "wpn-9007",
      "wpnId": "9007",
      "name": "Hobby Bunker",
      "address": "103 Albion Street, Wakefield, MA, 01880, United States",
      "phone": "1781-321-8855",
      "website": "http://wpn.wizards.com",
      "isPremium": false,
      "latitude": 42.50232,
      "longitude": -71.07668,
      "source": "Wizards Store and Event Locator"
    },
    {
      "id": "wpn-9099",
      "wpnId": "9099",
      "name": "Legends Comix and Games",
      "address": "23 Stevens St., Littleton, MA, 01460, United States",
      "phone": "+1978-897-0639",
      "website": "http://wpn.wizards.com",
      "isPremium": false,
      "latitude": 42.54578,
      "longitude": -71.47234,
      "source": "Wizards Store and Event Locator"
    },
    {
      "id": "wpn-20122",
      "wpnId": "20122",
      "name": "Lords of Cardboard",
      "address": "150 Main St, Webster, MA, 01570, United States",
      "phone": "1860-207-6511",
      "website": "http://Thyloc.com",
      "isPremium": false,
      "latitude": 42.0489057,
      "longitude": -71.8838591,
      "source": "Wizards Store and Event Locator"
    },
    {
      "id": "wpn-18514",
      "wpnId": "18514",
      "name": "Main St Comics Toys and More",
      "address": "74 Main St, Lee, MA, 01238, US",
      "phone": "1413-394-4170",
      "website": "http://mainstcomicstoysmore.ocm",
      "isPremium": false,
      "latitude": 42.30593679999999,
      "longitude": -73.2493799,
      "source": "Wizards Store and Event Locator"
    },
    {
      "id": "wpn-9371",
      "wpnId": "9371",
      "name": "Mana Crypt Gaming Center",
      "address": "55 W Housatonic St, Pittsfield, MA, 01201, United States",
      "phone": "+1(413) 553-3623",
      "website": "http://www.manacrypt.com",
      "isPremium": false,
      "latitude": 42.4452116,
      "longitude": -73.2573061,
      "source": "Wizards Store and Event Locator"
    },
    {
      "id": "wpn-15453",
      "wpnId": "15453",
      "name": "Medieval Starship Games and Hobbies",
      "address": "3035 County St, Somerset, MA, 02726, United States",
      "phone": "1508-567-0915",
      "website": "http://medievalstarship.com",
      "isPremium": false,
      "latitude": 41.7727657,
      "longitude": -71.1387666,
      "source": "Wizards Store and Event Locator"
    },
    {
      "id": "wpn-18111",
      "wpnId": "18111",
      "name": "Mox Archives and Games",
      "address": "127 W Rodney French Blvd, New Bedford, MA, 02744, United States",
      "phone": "1774-438-4191",
      "website": "https://www.facebook.com/profile.php?id=61565166543200",
      "isPremium": false,
      "latitude": 41.6115291,
      "longitude": -70.91794469999999,
      "source": "Wizards Store and Event Locator"
    },
    {
      "id": "wpn-20277",
      "wpnId": "20277",
      "name": "Northeast Games And Hobbies",
      "address": "525 Springfield St, Feeding Hills, MA, 01030, US",
      "phone": "1413-564-7312",
      "website": "https://www.northeastgamesandhobbies.com",
      "isPremium": false,
      "latitude": 42.0822254,
      "longitude": -72.64655379999999,
      "source": "Wizards Store and Event Locator"
    },
    {
      "id": "wpn-6513",
      "wpnId": "6513",
      "name": "Nostos",
      "address": "21 South Main Street, Ipswich, MA, 01938, United States",
      "phone": "(781) 922-9794",
      "website": "https://www.playatnostos.net/",
      "isPremium": true,
      "latitude": 42.67927,
      "longitude": -70.83723,
      "source": "Wizards Store and Event Locator"
    },
    {
      "id": "wpn-7462",
      "wpnId": "7462",
      "name": "Off the Wall",
      "address": "1654 Riverdale St, West Springfield, MA, 01089, US",
      "phone": "1413-586-5451",
      "website": "http://otwgamestore.com",
      "isPremium": false,
      "latitude": 42.1484743,
      "longitude": -72.6314218,
      "source": "Wizards Store and Event Locator"
    },
    {
      "id": "wpn-9052",
      "wpnId": "9052",
      "name": "Omar's World of Comics",
      "address": "20 Waltham Street, Lexington, MA, 02421, United States",
      "phone": "1(781) 457-6986",
      "website": "https://omarsworldofcomics.com/",
      "isPremium": false,
      "latitude": 42.44676,
      "longitude": -71.2274,
      "source": "Wizards Store and Event Locator"
    },
    {
      "id": "wpn-16075",
      "wpnId": "16075",
      "name": "OmniSource Games",
      "address": "875 State Rd Unit 12, Westport, MA, 02790, US",
      "phone": "17743195099",
      "website": "http://omnisourcegames.com",
      "isPremium": false,
      "latitude": 41.6505873,
      "longitude": -71.0676746,
      "source": "Wizards Store and Event Locator"
    },
    {
      "id": "wpn-16154",
      "wpnId": "16154",
      "name": "Once Upon a Memory Treasures",
      "address": "1444 N Main St, Palmer, MA, 01069, US",
      "phone": "14132313988",
      "website": "http://www.ouamtgaming.com",
      "isPremium": false,
      "latitude": 42.1578255,
      "longitude": -72.3307052,
      "source": "Wizards Store and Event Locator"
    },
    {
      "id": "wpn-9265",
      "wpnId": "9265",
      "name": "Overnight PC & Gaming",
      "address": "7 Hampshire Rd Methuen, MA 01844-1521 United States",
      "phone": "978-975-0545",
      "website": null,
      "isPremium": false,
      "latitude": 42.7416,
      "longitude": -71.2028,
      "source": "Wizards Store and Event Locator"
    },
    {
      "id": "wpn-11959",
      "wpnId": "11959",
      "name": "P and T Sports Cards",
      "address": "549 Bedford St. Ste 5 Whitman, MA 02382-1875 United States",
      "phone": "781-447-0777",
      "website": null,
      "isPremium": false,
      "latitude": 42.07553,
      "longitude": -70.94892,
      "source": "Wizards Store and Event Locator"
    },
    {
      "id": "wpn-9010",
      "wpnId": "9010",
      "name": "Pandemonium Books and Games",
      "address": "4 Pleasant St Cambridge, MA 02139 United States",
      "phone": "617-547-3721",
      "website": "http://www.pandemoniumbooks.com",
      "isPremium": false,
      "latitude": 42.36612,
      "longitude": -71.10565,
      "source": "Wizards Store and Event Locator"
    },
    {
      "id": "wpn-18624",
      "wpnId": "18624",
      "name": "Pandora's Deck Box",
      "address": "195 Whiting St #R1, Hingham, MA, 02043, US",
      "phone": "(781) 919-0184",
      "website": "http://pandorasdeckbox.com",
      "isPremium": false,
      "latitude": 42.18150639999999,
      "longitude": -70.9007666,
      "source": "Wizards Store and Event Locator"
    },
    {
      "id": "wpn-16969",
      "wpnId": "16969",
      "name": "Pegasus Collectibles",
      "address": "108 Mechanic St, Bellingham, MA, 02019, United States",
      "phone": "15084988715",
      "website": "http://pegasusbrz.com",
      "isPremium": false,
      "latitude": 42.08264339999999,
      "longitude": -71.4673194,
      "source": "Wizards Store and Event Locator"
    },
    {
      "id": "wpn-17998",
      "wpnId": "17998",
      "name": "PLAYNOW!",
      "address": "5 E Silver St, Westfield, MA, 01085, US",
      "phone": "1413-579-5472",
      "website": "https://playnowtoy.com",
      "isPremium": false,
      "latitude": 42.112829,
      "longitude": -72.746875,
      "source": "Wizards Store and Event Locator"
    },
    {
      "id": "wpn-21178",
      "wpnId": "21178",
      "name": "PLAYNOW! Westborough",
      "address": "18 Lyman St, Westborough, MA, 01581, United States",
      "phone": "1413-563-0377",
      "website": "https://playnowtoy.com",
      "isPremium": false,
      "latitude": 42.2815063,
      "longitude": -71.6086499,
      "source": "Wizards Store and Event Locator"
    },
    {
      "id": "wpn-14908",
      "wpnId": "14908",
      "name": "Pop Cultured",
      "address": "58 Prescott St, Lowell, MA, 01852, United States",
      "phone": "1978-364-0310",
      "website": "https://www.facebook.com/ShopPopCultured/",
      "isPremium": false,
      "latitude": 42.6446444,
      "longitude": -71.3078822,
      "source": "Wizards Store and Event Locator"
    },
    {
      "id": "wpn-9042",
      "wpnId": "9042",
      "name": "Rivendell Books and Games",
      "address": "224 Winthrop St (Rte 44) Unit 3 Rehoboth, MA 02769 United States",
      "phone": "508-252-5798",
      "website": "http://www.facebook.com/pages/Rivendell-Books-Games/181456228495",
      "isPremium": false,
      "latitude": 41.85588,
      "longitude": -71.23726,
      "source": "Wizards Store and Event Locator"
    },
    {
      "id": "wpn-10184",
      "wpnId": "10184",
      "name": "Round Table Games",
      "address": "128 Main St, Carver, MA, 02330-2024, United States",
      "phone": "1508-465-1671",
      "website": "https://www.roundtablegamesma.com/",
      "isPremium": false,
      "latitude": 41.88477,
      "longitude": -70.76601,
      "source": "Wizards Store and Event Locator"
    },
    {
      "id": "wpn-17570",
      "wpnId": "17570",
      "name": "Second Chance",
      "address": "10 Colonial Rd, Salem, MA, 01970, US",
      "phone": "1781-307-3214",
      "website": "http://wpn.wizards.com",
      "isPremium": false,
      "latitude": 42.5094369,
      "longitude": -70.900482,
      "source": "Wizards Store and Event Locator"
    },
    {
      "id": "wpn-21897",
      "wpnId": "21897",
      "name": "Sick Deals Gaming Co.",
      "address": "48 Sword St, Auburn, MA, 01501-2161, USA",
      "phone": "1508-373-2788",
      "website": "http://www.mtgsickdeals.com/",
      "isPremium": false,
      "latitude": 42.22202,
      "longitude": -71.82652,
      "source": "Wizards Store and Event Locator"
    },
    {
      "id": "wpn-6682",
      "wpnId": "6682",
      "name": "Slapshot Sports Cards",
      "address": "184 Broadway Ste 16 Saugus, MA 01906 United States",
      "phone": "781-231-1800",
      "website": null,
      "isPremium": false,
      "latitude": 42.49011,
      "longitude": -71.01625,
      "source": "Wizards Store and Event Locator"
    },
    {
      "id": "wpn-13603",
      "wpnId": "13603",
      "name": "Tavern of Tales",
      "address": "1478 Tremont St, Boston, MA, 02120, United States",
      "phone": "1(617) 708-0172",
      "website": "https://www.tavernoftales.com/",
      "isPremium": false,
      "latitude": 42.33189,
      "longitude": -71.10056,
      "source": "Wizards Store and Event Locator"
    },
    {
      "id": "wpn-19531",
      "wpnId": "19531",
      "name": "TCG House of Cards",
      "address": "64 Madison St, Worcester, MA, 01608, United States",
      "phone": "1(774) 276-7109",
      "website": "https://Www.tcghouseofcards.com",
      "isPremium": false,
      "latitude": 42.2587768,
      "longitude": -71.80255199999999,
      "source": "Wizards Store and Event Locator"
    },
    {
      "id": "wpn-5985",
      "wpnId": "5985",
      "name": "That's Entertainment - Fitchburg",
      "address": "56 John Fitch Hwy, Fitchburg, MA, 01420, United States",
      "phone": "1978-342-8607",
      "website": "https://thatse.com/",
      "isPremium": false,
      "latitude": 42.57263,
      "longitude": -71.77687,
      "source": "Wizards Store and Event Locator"
    },
    {
      "id": "wpn-10610",
      "wpnId": "10610",
      "name": "That's Entertainment - Worcester",
      "address": "244 Park Ave, Worcester, MA, 01609, United States",
      "phone": "1508-755-4207",
      "website": "https://thatse.com/",
      "isPremium": false,
      "latitude": 42.26545,
      "longitude": -71.8192,
      "source": "Wizards Store and Event Locator"
    },
    {
      "id": "wpn-6183",
      "wpnId": "6183",
      "name": "The Armoury Wargames and Hobbies",
      "address": "67 Huttleston Avenue, Fairhaven, MA, 02719, United States",
      "phone": "1774-202-0441",
      "website": "https://thearmourywh.com/",
      "isPremium": false,
      "latitude": 41.6437,
      "longitude": -70.89989,
      "source": "Wizards Store and Event Locator"
    },
    {
      "id": "wpn-5952",
      "wpnId": "5952",
      "name": "The Castle",
      "address": "140 Rantoul St, Beverly, MA, 01915, US",
      "phone": "1978-766-6348",
      "website": "http://thecastlebeverly.com/",
      "isPremium": false,
      "latitude": 42.5463262,
      "longitude": -70.8846717,
      "source": "Wizards Store and Event Locator"
    },
    {
      "id": "wpn-5958",
      "wpnId": "5958",
      "name": "The Game Reserve",
      "address": "495 Center St, Middleborough, MA, 02346, United States",
      "phone": "1978-298-4409",
      "website": "https://www.facebook.com/thegamereserveMA/",
      "isPremium": false,
      "latitude": 41.89375,
      "longitude": -70.9176,
      "source": "Wizards Store and Event Locator"
    },
    {
      "id": "wpn-18515",
      "wpnId": "18515",
      "name": "The GOAT Card Shop",
      "address": "29 N Maple St, Northampton, MA, 01062, United States",
      "phone": "1413-341-3453",
      "website": "http://www.thegoatcardshop.com",
      "isPremium": false,
      "latitude": 42.3365375,
      "longitude": -72.6717651,
      "source": "Wizards Store and Event Locator"
    },
    {
      "id": "wpn-18038",
      "wpnId": "18038",
      "name": "The Hub",
      "address": "1201 Broadway, Saugus, MA, 01906, US",
      "phone": "1978-646-7237",
      "website": "https://magic.wizards.com",
      "isPremium": false,
      "latitude": 42.4606134,
      "longitude": -71.027119,
      "source": "Wizards Store and Event Locator"
    },
    {
      "id": "wpn-19549",
      "wpnId": "19549",
      "name": "The Keep - Ware",
      "address": "39 W Main St, Ware, MA, 01082, United States",
      "phone": "1(978) 302-6638",
      "website": "https://www.facebook.com/profile.php?id=61580197290831",
      "isPremium": false,
      "latitude": 42.2607586,
      "longitude": -72.2450209,
      "source": "Wizards Store and Event Locator"
    },
    {
      "id": "wpn-14501",
      "wpnId": "14501",
      "name": "The King's Court Gaming and Collectibles",
      "address": "388 Bay street, Taunton, MA, 02780-1738, United States",
      "phone": "1508-738-6942",
      "website": "https://discord.gg/mfshnBBFfk",
      "isPremium": false,
      "latitude": 41.92196,
      "longitude": -71.09752,
      "source": "Wizards Store and Event Locator"
    },
    {
      "id": "wpn-10201",
      "wpnId": "10201",
      "name": "The Lamp and Dragon",
      "address": "41 Main St, Ayer, MA, 01432, United States",
      "phone": "1978-391-4028",
      "website": "https://plamedianne.wixsite.com/my-site",
      "isPremium": false,
      "latitude": 42.55957,
      "longitude": -71.58836,
      "source": "Wizards Store and Event Locator"
    },
    {
      "id": "wpn-8181",
      "wpnId": "8181",
      "name": "The Sorcerer's Inn",
      "address": "16 Mazzeo Drive, Randolph, MA, 02368, United States",
      "phone": "1781-767-4263",
      "website": "https://www.facebook.com/TheSorcerersInn",
      "isPremium": false,
      "latitude": 42.16483,
      "longitude": -71.05705,
      "source": "Wizards Store and Event Locator"
    },
    {
      "id": "wpn-6881",
      "wpnId": "6881",
      "name": "The Wizard's Duel",
      "address": "675 Centre St Brockton, MA 02302 United States",
      "phone": "508-584-9572",
      "website": "http://www.thewizardsduel.com",
      "isPremium": false,
      "latitude": 42.08624,
      "longitude": -70.9908,
      "source": "Wizards Store and Event Locator"
    },
    {
      "id": "wpn-9190",
      "wpnId": "9190",
      "name": "Tiger's Eye Games",
      "address": "799 South Main Street, Bellingham, MA, 02019, United States",
      "phone": "1(508) 928-2228",
      "website": "https://www.facebook.com/TigersEyeGames/",
      "isPremium": false,
      "latitude": 42.05102,
      "longitude": -71.48179,
      "source": "Wizards Store and Event Locator"
    },
    {
      "id": "wpn-9030",
      "wpnId": "9030",
      "name": "TJ Cafe and Games",
      "address": "146 South Main Street Unit 2, Milford, MA, 01757, United States",
      "phone": "1508-473-5874",
      "website": "https://www.tjcafeandgames.com/",
      "isPremium": true,
      "latitude": 42.12582,
      "longitude": -71.5149,
      "source": "Wizards Store and Event Locator"
    },
    {
      "id": "wpn-6618",
      "wpnId": "6618",
      "name": "Toy Soldier 5.036",
      "address": "113 Main St Ste B Amesbury, MA 01913 United States",
      "phone": "978-388-2512",
      "website": null,
      "isPremium": false,
      "latitude": 42.85585,
      "longitude": -70.93165,
      "source": "Wizards Store and Event Locator"
    },
    {
      "id": "wpn-14071",
      "wpnId": "14071",
      "name": "Vanguard Skills",
      "address": "795 West Main Street Hyannis, MA 02601 United States",
      "phone": "(508)258-9439",
      "website": "http://vanguardskills.com/",
      "isPremium": false,
      "latitude": 41.65426,
      "longitude": -70.32591,
      "source": "Wizards Store and Event Locator"
    },
    {
      "id": "wpn-16289",
      "wpnId": "16289",
      "name": "VTC Games & More",
      "address": "393 N Main St Suite #103, Mansfield, MA, 02048, US",
      "phone": "17742657290",
      "website": "https://vtcgamestore.com/",
      "isPremium": false,
      "latitude": 42.0330778,
      "longitude": -71.2183316,
      "source": "Wizards Store and Event Locator"
    },
    {
      "id": "wpn-21136",
      "wpnId": "21136",
      "name": "World's End Gaming",
      "address": "321 W Grove St, Middleborough, MA, 02346, United States",
      "phone": "1781-241-0005",
      "website": "https://www.instagram.com/worldsendgaming/",
      "isPremium": false,
      "latitude": 41.8943108,
      "longitude": -70.941836,
      "source": "Wizards Store and Event Locator"
    },
    {
      "id": "wpn-5780",
      "wpnId": "5780",
      "name": "X9 Games",
      "address": "367 Russel St Ste 44 Hadley, MA 01035 United States",
      "phone": "413-582-0310",
      "website": null,
      "isPremium": false,
      "latitude": 42.35637,
      "longitude": -72.54784,
      "source": "Wizards Store and Event Locator"
    },
    {
      "id": "wpn-6637",
      "wpnId": "6637",
      "name": "Zenith Comics",
      "address": "95 Pleasant Street, Malden, MA, 02148, United States",
      "phone": "1781-322-2404",
      "website": "https://www.instagram.com/zenithcomicsmalden",
      "isPremium": false,
      "latitude": 42.4273,
      "longitude": -71.06988,
      "source": "Wizards Store and Event Locator"
    }
  ]
}